[
  {
    "_ts": 1764624570.126506,
    "state": {
      "RAW_IMU": {
        "mavpackettype": "RAW_IMU",
        "time_usec": 20876269,
        "xacc": -87,
        "yacc": -873,
        "zacc": -445,
        "xgyro": 639,
        "ygyro": 873,
        "zgyro": -930,
        "xmag": 0,
        "ymag": 0,
        "zmag": 0,
        "id": 0,
        "temperature": 3035,
        "_ts": 1764624570.035235
      },
      "AHRS": {
        "mavpackettype": "AHRS",
        "omegaIx": -0.0014189414214342833,
        "omegaIy": 3.194211240042932e-05,
        "omegaIz": -0.0002773907908704132,
        "accel_weight": 0.0,
        "renorm_val": 0.0,
        "error_rp": 0.020967185497283936,
        "error_yaw": 1.0,
        "_ts": 1764624569.8302035
      },
      "AHRS2": {
        "mavpackettype": "AHRS2",
        "roll": 1.1410086154937744,
        "pitch": 0.11931644380092621,
        "yaw": -0.46217092871665955,
        "altitude": 0.1599999964237213,
        "lat": 0,
        "lng": 0,
        "_ts": 1764624570.035235
      },
      "ATTITUDE": {
        "mavpackettype": "ATTITUDE",
        "time_boot_ms": 20809,
        "roll": 1.1289405822753906,
        "pitch": -0.1391763985157013,
        "yaw": -0.567338228225708,
        "rollspeed": 0.9989237785339355,
        "pitchspeed": 0.2962862551212311,
        "yawspeed": -0.2949437201023102,
        "_ts": 1764624569.9341168
      },
      "VFR_HUD": {
        "mavpackettype": "VFR_HUD",
        "airspeed": 0.0,
        "groundspeed": 0.363943487405777,
        "heading": 328,
        "throttle": 0,
        "alt": 0.17999999225139618,
        "climb": 0.03065139800310135,
        "_ts": 1764624570.035235
      },
      "SCALED_PRESSURE": {
        "mavpackettype": "SCALED_PRESSURE",
        "time_boot_ms": 20876,
        "press_abs": 996.5460205078125,
        "press_diff": 0.0,
        "temperature": 2967,
        "temperature_press_diff": 0,
        "_ts": 1764624570.035235
      },
      "SYSTEM_TIME": {
        "mavpackettype": "SYSTEM_TIME",
        "time_unix_usec": 0,
        "time_boot_ms": 20778,
        "_ts": 1764624569.8302035
      },
      "RANGEFINDER": {
        "mavpackettype": "RANGEFINDER",
        "distance": 0.24700000882148743,
        "voltage": 0.0,
        "_ts": 1764624569.9341168
      },
      "DISTANCE_SENSOR": {
        "mavpackettype": "DISTANCE_SENSOR",
        "time_boot_ms": 20782,
        "min_distance": 20,
        "max_distance": 300,
        "current_distance": 24,
        "type": 0,
        "id": 0,
        "orientation": 25,
        "covariance": 0,
        "horizontal_fov": 0.0,
        "vertical_fov": 0.0,
        "quaternion": [
          0.0,
          0.0,
          0.0,
          0.0
        ],
        "signal_quality": 0,
        "_ts": 1764624569.9341168
      },
      "EKF_STATUS_REPORT": {
        "mavpackettype": "EKF_STATUS_REPORT",
        "flags": 167,
        "velocity_variance": 0.0,
        "pos_horiz_variance": 0.017319774255156517,
        "pos_vert_variance": 0.023749686777591705,
        "compass_variance": 0.0,
        "terrain_alt_variance": 0.0,
        "airspeed_variance": 0.0,
        "_ts": 1764624569.9341168
      },
      "VIBRATION": {
        "mavpackettype": "VIBRATION",
        "time_usec": 20796170,
        "vibration_x": 0.15991199016571045,
        "vibration_y": 0.27125200629234314,
        "vibration_z": 0.28153926134109497,
        "clipping_0": 0,
        "clipping_1": 0,
        "clipping_2": 0,
        "_ts": 1764624569.9341168
      },
      "BATTERY_STATUS": {
        "mavpackettype": "BATTERY_STATUS",
        "id": 0,
        "battery_function": 0,
        "type": 0,
        "temperature": 32767,
        "voltages": [
          4072,
          65535,
          65535,
          65535,
          65535,
          65535,
          65535,
          65535,
          65535,
          65535
        ],
        "current_battery": 15,
        "current_consumed": 0,
        "energy_consumed": -1,
        "battery_remaining": 99,
        "time_remaining": 0,
        "charge_state": 1,
        "voltages_ext": [
          0,
          0,
          0,
          0
        ],
        "mode": 0,
        "fault_bitmask": 0,
        "_ts": 1764624569.9341168
      },
      "GLOBAL_POSITION_INT": {
        "mavpackettype": "GLOBAL_POSITION_INT",
        "time_boot_ms": 20883,
        "lat": 0,
        "lon": 0,
        "alt": 180,
        "relative_alt": 146,
        "vx": 18,
        "vy": 30,
        "vz": -3,
        "hdg": 32854,
        "_ts": 1764624570.035235
      },
      "SERVO_OUTPUT_RAW": {
        "mavpackettype": "SERVO_OUTPUT_RAW",
        "time_usec": 20889036,
        "port": 0,
        "servo1_raw": 1000,
        "servo2_raw": 1000,
        "servo3_raw": 1000,
        "servo4_raw": 1000,
        "servo5_raw": 0,
        "servo6_raw": 0,
        "servo7_raw": 0,
        "servo8_raw": 0,
        "servo9_raw": 0,
        "servo10_raw": 0,
        "servo11_raw": 0,
        "servo12_raw": 0,
        "servo13_raw": 0,
        "servo14_raw": 0,
        "servo15_raw": 0,
        "servo16_raw": 0,
        "_ts": 1764624570.035235
      },
      "RC_CHANNELS": {
        "mavpackettype": "RC_CHANNELS",
        "time_boot_ms": 20897,
        "chancount": 0,
        "chan1_raw": 0,
        "chan2_raw": 0,
        "chan3_raw": 0,
        "chan4_raw": 0,
        "chan5_raw": 0,
        "chan6_raw": 0,
        "chan7_raw": 0,
        "chan8_raw": 0,
        "chan9_raw": 0,
        "chan10_raw": 0,
        "chan11_raw": 0,
        "chan12_raw": 0,
        "chan13_raw": 0,
        "chan14_raw": 0,
        "chan15_raw": 0,
        "chan16_raw": 0,
        "chan17_raw": 0,
        "chan18_raw": 0,
        "rssi": 255,
        "_ts": 1764624570.035235
      },
      "SYS_STATUS": {
        "mavpackettype": "SYS_STATUS",
        "onboard_control_sensors_present": 1394670859,
        "onboard_control_sensors_enabled": 1124113675,
        "onboard_control_sensors_health": 1174445323,
        "load": 655,
        "voltage_battery": 4072,
        "current_battery": 16,
        "battery_remaining": 99,
        "drop_rate_comm": 0,
        "errors_comm": 0,
        "errors_count1": 0,
        "errors_count2": 0,
        "errors_count3": 0,
        "errors_count4": 0,
        "_ts": 1764624569.8302035
      },
      "POWER_STATUS": {
        "mavpackettype": "POWER_STATUS",
        "Vcc": 5000,
        "Vservo": 0,
        "flags": 0,
        "_ts": 1764624569.8302035
      },
      "MEMINFO": {
        "mavpackettype": "MEMINFO",
        "brkval": 0,
        "freemem": 34816,
        "freemem32": 34816,
        "_ts": 1764624569.8302035
      },
      "NAV_CONTROLLER_OUTPUT": {
        "mavpackettype": "NAV_CONTROLLER_OUTPUT",
        "nav_roll": 0.0,
        "nav_pitch": 0.0,
        "nav_bearing": -31,
        "target_bearing": 0,
        "wp_dist": 0,
        "alt_error": 0.0,
        "aspd_error": 0.0,
        "xtrack_error": 0.0,
        "_ts": 1764624569.8302035
      },
      "MISSION_CURRENT": {
        "mavpackettype": "MISSION_CURRENT",
        "seq": 0,
        "total": 0,
        "mission_state": 1,
        "mission_mode": 0,
        "_ts": 1764624569.8302035
      },
      "GPS_RAW_INT": {
        "mavpackettype": "GPS_RAW_INT",
        "time_usec": 0,
        "fix_type": 0,
        "lat": 0,
        "lon": 0,
        "alt": 0,
        "eph": 65535,
        "epv": 65535,
        "vel": 0,
        "cog": 0,
        "satellites_visible": 0,
        "alt_ellipsoid": 0,
        "h_acc": 0,
        "v_acc": 0,
        "vel_acc": 0,
        "hdg_acc": 0,
        "yaw": 0,
        "_ts": 1764624569.8302035
      },
      "HEARTBEAT": {
        "mavpackettype": "HEARTBEAT",
        "type": 2,
        "autopilot": 3,
        "base_mode": 81,
        "custom_mode": 0,
        "system_status": 3,
        "mavlink_version": 3,
        "_ts": 1764624570.035235
      },
      "TIMESYNC": {
        "mavpackettype": "TIMESYNC",
        "tc1": 0,
        "ts1": 20022132001,
        "_ts": 1764624569.118461
      }
    }
  },
  {
    "_ts": 1764624570.205037,
    "state": {
      "RAW_IMU": {
        "mavpackettype": "RAW_IMU",
        "time_usec": 20996807,
        "xacc": 66,
        "yacc": -895,
        "zacc": -389,
        "xgyro": -358,
        "ygyro": 1815,
        "zgyro": -1574,
        "xmag": 0,
        "ymag": 0,
        "zmag": 0,
        "id": 0,
        "temperature": 3038,
        "_ts": 1764624570.1400237
      },
      "AHRS": {
        "mavpackettype": "AHRS",
        "omegaIx": -0.0014189414214342833,
        "omegaIy": 3.194211240042932e-05,
        "omegaIz": -0.0002773907908704132,
        "accel_weight": 0.0,
        "renorm_val": 0.0,
        "error_rp": 0.020967185497283936,
        "error_yaw": 1.0,
        "_ts": 1764624569.8302035
      },
      "AHRS2": {
        "mavpackettype": "AHRS2",
        "roll": 1.1410086154937744,
        "pitch": 0.11931644380092621,
        "yaw": -0.46217092871665955,
        "altitude": 0.1599999964237213,
        "lat": 0,
        "lng": 0,
        "_ts": 1764624570.035235
      },
      "ATTITUDE": {
        "mavpackettype": "ATTITUDE",
        "time_boot_ms": 20996,
        "roll": 1.1999620199203491,
        "pitch": 0.12462949752807617,
        "yaw": -0.4525053799152374,
        "rollspeed": -0.3608955144882202,
        "pitchspeed": 1.8158951997756958,
        "yawspeed": -1.5761334896087646,
        "_ts": 1764624570.1400237
      },
      "VFR_HUD": {
        "mavpackettype": "VFR_HUD",
        "airspeed": 0.0,
        "groundspeed": 0.38537293672561646,
        "heading": 335,
        "throttle": 0,
        "alt": 0.17999999225139618,
        "climb": -0.04429754987359047,
        "_ts": 1764624570.1400237
      },
      "SCALED_PRESSURE": {
        "mavpackettype": "SCALED_PRESSURE",
        "time_boot_ms": 21004,
        "press_abs": 996.5435791015625,
        "press_diff": 0.0,
        "temperature": 2968,
        "temperature_press_diff": 0,
        "_ts": 1764624570.1400237
      },
      "SYSTEM_TIME": {
        "mavpackettype": "SYSTEM_TIME",
        "time_unix_usec": 0,
        "time_boot_ms": 20778,
        "_ts": 1764624569.8302035
      },
      "RANGEFINDER": {
        "mavpackettype": "RANGEFINDER",
        "distance": 0.24700000882148743,
        "voltage": 0.0,
        "_ts": 1764624569.9341168
      },
      "DISTANCE_SENSOR": {
        "mavpackettype": "DISTANCE_SENSOR",
        "time_boot_ms": 20782,
        "min_distance": 20,
        "max_distance": 300,
        "current_distance": 24,
        "type": 0,
        "id": 0,
        "orientation": 25,
        "covariance": 0,
        "horizontal_fov": 0.0,
        "vertical_fov": 0.0,
        "quaternion": [
          0.0,
          0.0,
          0.0,
          0.0
        ],
        "signal_quality": 0,
        "_ts": 1764624569.9341168
      },
      "EKF_STATUS_REPORT": {
        "mavpackettype": "EKF_STATUS_REPORT",
        "flags": 167,
        "velocity_variance": 0.0,
        "pos_horiz_variance": 0.017319774255156517,
        "pos_vert_variance": 0.023749686777591705,
        "compass_variance": 0.0,
        "terrain_alt_variance": 0.0,
        "airspeed_variance": 0.0,
        "_ts": 1764624569.9341168
      },
      "VIBRATION": {
        "mavpackettype": "VIBRATION",
        "time_usec": 20796170,
        "vibration_x": 0.15991199016571045,
        "vibration_y": 0.27125200629234314,
        "vibration_z": 0.28153926134109497,
        "clipping_0": 0,
        "clipping_1": 0,
        "clipping_2": 0,
        "_ts": 1764624569.9341168
      },
      "BATTERY_STATUS": {
        "mavpackettype": "BATTERY_STATUS",
        "id": 0,
        "battery_function": 0,
        "type": 0,
        "temperature": 32767,
        "voltages": [
          4072,
          65535,
          65535,
          65535,
          65535,
          65535,
          65535,
          65535,
          65535,
          65535
        ],
        "current_battery": 15,
        "current_consumed": 0,
        "energy_consumed": -1,
        "battery_remaining": 99,
        "time_remaining": 0,
        "charge_state": 1,
        "voltages_ext": [
          0,
          0,
          0,
          0
        ],
        "mode": 0,
        "fault_bitmask": 0,
        "_ts": 1764624569.9341168
      },
      "GLOBAL_POSITION_INT": {
        "mavpackettype": "GLOBAL_POSITION_INT",
        "time_boot_ms": 21018,
        "lat": 0,
        "lon": 0,
        "alt": 180,
        "relative_alt": 146,
        "vx": 19,
        "vy": 33,
        "vz": 4,
        "hdg": 33521,
        "_ts": 1764624570.1400237
      },
      "SERVO_OUTPUT_RAW": {
        "mavpackettype": "SERVO_OUTPUT_RAW",
        "time_usec": 21031372,
        "port": 0,
        "servo1_raw": 1000,
        "servo2_raw": 1000,
        "servo3_raw": 1000,
        "servo4_raw": 1000,
        "servo5_raw": 0,
        "servo6_raw": 0,
        "servo7_raw": 0,
        "servo8_raw": 0,
        "servo9_raw": 0,
        "servo10_raw": 0,
        "servo11_raw": 0,
        "servo12_raw": 0,
        "servo13_raw": 0,
        "servo14_raw": 0,
        "servo15_raw": 0,
        "servo16_raw": 0,
        "_ts": 1764624570.1400237
      },
      "RC_CHANNELS": {
        "mavpackettype": "RC_CHANNELS",
        "time_boot_ms": 21031,
        "chancount": 0,
        "chan1_raw": 0,
        "chan2_raw": 0,
        "chan3_raw": 0,
        "chan4_raw": 0,
        "chan5_raw": 0,
        "chan6_raw": 0,
        "chan7_raw": 0,
        "chan8_raw": 0,
        "chan9_raw": 0,
        "chan10_raw": 0,
        "chan11_raw": 0,
        "chan12_raw": 0,
        "chan13_raw": 0,
        "chan14_raw": 0,
        "chan15_raw": 0,
        "chan16_raw": 0,
        "chan17_raw": 0,
        "chan18_raw": 0,
        "rssi": 255,
        "_ts": 1764624570.1400237
      },
      "SYS_STATUS": {
        "mavpackettype": "SYS_STATUS",
        "onboard_control_sensors_present": 1394670859,
        "onboard_control_sensors_enabled": 1124113675,
        "onboard_control_sensors_health": 1174445323,
        "load": 655,
        "voltage_battery": 4072,
        "current_battery": 16,
        "battery_remaining": 99,
        "drop_rate_comm": 0,
        "errors_comm": 0,
        "errors_count1": 0,
        "errors_count2": 0,
        "errors_count3": 0,
        "errors_count4": 0,
        "_ts": 1764624569.8302035
      },
      "POWER_STATUS": {
        "mavpackettype": "POWER_STATUS",
        "Vcc": 5000,
        "Vservo": 0,
        "flags": 0,
        "_ts": 1764624569.8302035
      },
      "MEMINFO": {
        "mavpackettype": "MEMINFO",
        "brkval": 0,
        "freemem": 34816,
        "freemem32": 34816,
        "_ts": 1764624569.8302035
      },
      "NAV_CONTROLLER_OUTPUT": {
        "mavpackettype": "NAV_CONTROLLER_OUTPUT",
        "nav_roll": 0.0,
        "nav_pitch": 0.0,
        "nav_bearing": -31,
        "target_bearing": 0,
        "wp_dist": 0,
        "alt_error": 0.0,
        "aspd_error": 0.0,
        "xtrack_error": 0.0,
        "_ts": 1764624569.8302035
      },
      "MISSION_CURRENT": {
        "mavpackettype": "MISSION_CURRENT",
        "seq": 0,
        "total": 0,
        "mission_state": 1,
        "mission_mode": 0,
        "_ts": 1764624569.8302035
      },
      "GPS_RAW_INT": {
        "mavpackettype": "GPS_RAW_INT",
        "time_usec": 0,
        "fix_type": 0,
        "lat": 0,
        "lon": 0,
        "alt": 0,
        "eph": 65535,
        "epv": 65535,
        "vel": 0,
        "cog": 0,
        "satellites_visible": 0,
        "alt_ellipsoid": 0,
        "h_acc": 0,
        "v_acc": 0,
        "vel_acc": 0,
        "hdg_acc": 0,
        "yaw": 0,
        "_ts": 1764624569.8302035
      },
      "HEARTBEAT": {
        "mavpackettype": "HEARTBEAT",
        "type": 2,
        "autopilot": 3,
        "base_mode": 81,
        "custom_mode": 0,
        "system_status": 3,
        "mavlink_version": 3,
        "_ts": 1764624570.035235
      },
      "TIMESYNC": {
        "mavpackettype": "TIMESYNC",
        "tc1": 0,
        "ts1": 20022132001,
        "_ts": 1764624569.118461
      }
    }
  },
  {
    "_ts": 1764624570.2375772,
    "state": {
      "RAW_IMU": {
        "mavpackettype": "RAW_IMU",
        "time_usec": 20996807,
        "xacc": 66,
        "yacc": -895,
        "zacc": -389,
        "xgyro": -358,
        "ygyro": 1815,
        "zgyro": -1574,
        "xmag": 0,
        "ymag": 0,
        "zmag": 0,
        "id": 0,
        "temperature": 3038,
        "_ts": 1764624570.1400237
      },
      "AHRS": {
        "mavpackettype": "AHRS",
        "omegaIx": -0.0014189414214342833,
        "omegaIy": 3.194211240042932e-05,
        "omegaIz": -0.0002773907908704132,
        "accel_weight": 0.0,
        "renorm_val": 0.0,
        "error_rp": 0.020967185497283936,
        "error_yaw": 1.0,
        "_ts": 1764624569.8302035
      },
      "AHRS2": {
        "mavpackettype": "AHRS2",
        "roll": 1.1410086154937744,
        "pitch": 0.11931644380092621,
        "yaw": -0.46217092871665955,
        "altitude": 0.1599999964237213,
        "lat": 0,
        "lng": 0,
        "_ts": 1764624570.035235
      },
      "ATTITUDE": {
        "mavpackettype": "ATTITUDE",
        "time_boot_ms": 20996,
        "roll": 1.1999620199203491,
        "pitch": 0.12462949752807617,
        "yaw": -0.4525053799152374,
        "rollspeed": -0.3608955144882202,
        "pitchspeed": 1.8158951997756958,
        "yawspeed": -1.5761334896087646,
        "_ts": 1764624570.1400237
      },
      "VFR_HUD": {
        "mavpackettype": "VFR_HUD",
        "airspeed": 0.0,
        "groundspeed": 0.38537293672561646,
        "heading": 335,
        "throttle": 0,
        "alt": 0.17999999225139618,
        "climb": -0.04429754987359047,
        "_ts": 1764624570.1400237
      },
      "SCALED_PRESSURE": {
        "mavpackettype": "SCALED_PRESSURE",
        "time_boot_ms": 21004,
        "press_abs": 996.5435791015625,
        "press_diff": 0.0,
        "temperature": 2968,
        "temperature_press_diff": 0,
        "_ts": 1764624570.1400237
      },
      "SYSTEM_TIME": {
        "mavpackettype": "SYSTEM_TIME",
        "time_unix_usec": 0,
        "time_boot_ms": 20778,
        "_ts": 1764624569.8302035
      },
      "RANGEFINDER": {
        "mavpackettype": "RANGEFINDER",
        "distance": 0.24700000882148743,
        "voltage": 0.0,
        "_ts": 1764624569.9341168
      },
      "DISTANCE_SENSOR": {
        "mavpackettype": "DISTANCE_SENSOR",
        "time_boot_ms": 20782,
        "min_distance": 20,
        "max_distance": 300,
        "current_distance": 24,
        "type": 0,
        "id": 0,
        "orientation": 25,
        "covariance": 0,
        "horizontal_fov": 0.0,
        "vertical_fov": 0.0,
        "quaternion": [
          0.0,
          0.0,
          0.0,
          0.0
        ],
        "signal_quality": 0,
        "_ts": 1764624569.9341168
      },
      "EKF_STATUS_REPORT": {
        "mavpackettype": "EKF_STATUS_REPORT",
        "flags": 167,
        "velocity_variance": 0.0,
        "pos_horiz_variance": 0.017319774255156517,
        "pos_vert_variance": 0.023749686777591705,
        "compass_variance": 0.0,
        "terrain_alt_variance": 0.0,
        "airspeed_variance": 0.0,
        "_ts": 1764624569.9341168
      },
      "VIBRATION": {
        "mavpackettype": "VIBRATION",
        "time_usec": 20796170,
        "vibration_x": 0.15991199016571045,
        "vibration_y": 0.27125200629234314,
        "vibration_z": 0.28153926134109497,
        "clipping_0": 0,
        "clipping_1": 0,
        "clipping_2": 0,
        "_ts": 1764624569.9341168
      },
      "BATTERY_STATUS": {
        "mavpackettype": "BATTERY_STATUS",
        "id": 0,
        "battery_function": 0,
        "type": 0,
        "temperature": 32767,
        "voltages": [
          4072,
          65535,
          65535,
          65535,
          65535,
          65535,
          65535,
          65535,
          65535,
          65535
        ],
        "current_battery": 15,
        "current_consumed": 0,
        "energy_consumed": -1,
        "battery_remaining": 99,
        "time_remaining": 0,
        "charge_state": 1,
        "voltages_ext": [
          0,
          0,
          0,
          0
        ],
        "mode": 0,
        "fault_bitmask": 0,
        "_ts": 1764624569.9341168
      },
      "GLOBAL_POSITION_INT": {
        "mavpackettype": "GLOBAL_POSITION_INT",
        "time_boot_ms": 21018,
        "lat": 0,
        "lon": 0,
        "alt": 180,
        "relative_alt": 146,
        "vx": 19,
        "vy": 33,
        "vz": 4,
        "hdg": 33521,
        "_ts": 1764624570.1400237
      },
      "SERVO_OUTPUT_RAW": {
        "mavpackettype": "SERVO_OUTPUT_RAW",
        "time_usec": 21031372,
        "port": 0,
        "servo1_raw": 1000,
        "servo2_raw": 1000,
        "servo3_raw": 1000,
        "servo4_raw": 1000,
        "servo5_raw": 0,
        "servo6_raw": 0,
        "servo7_raw": 0,
        "servo8_raw": 0,
        "servo9_raw": 0,
        "servo10_raw": 0,
        "servo11_raw": 0,
        "servo12_raw": 0,
        "servo13_raw": 0,
        "servo14_raw": 0,
        "servo15_raw": 0,
        "servo16_raw": 0,
        "_ts": 1764624570.1400237
      },
      "RC_CHANNELS": {
        "mavpackettype": "RC_CHANNELS",
        "time_boot_ms": 21031,
        "chancount": 0,
        "chan1_raw": 0,
        "chan2_raw": 0,
        "chan3_raw": 0,
        "chan4_raw": 0,
        "chan5_raw": 0,
        "chan6_raw": 0,
        "chan7_raw": 0,
        "chan8_raw": 0,
        "chan9_raw": 0,
        "chan10_raw": 0,
        "chan11_raw": 0,
        "chan12_raw": 0,
        "chan13_raw": 0,
        "chan14_raw": 0,
        "chan15_raw": 0,
        "chan16_raw": 0,
        "chan17_raw": 0,
        "chan18_raw": 0,
        "rssi": 255,
        "_ts": 1764624570.1400237
      },
      "SYS_STATUS": {
        "mavpackettype": "SYS_STATUS",
        "onboard_control_sensors_present": 1394670859,
        "onboard_control_sensors_enabled": 1124113675,
        "onboard_control_sensors_health": 1174445323,
        "load": 655,
        "voltage_battery": 4072,
        "current_battery": 16,
        "battery_remaining": 99,
        "drop_rate_comm": 0,
        "errors_comm": 0,
        "errors_count1": 0,
        "errors_count2": 0,
        "errors_count3": 0,
        "errors_count4": 0,
        "_ts": 1764624569.8302035
      },
      "POWER_STATUS": {
        "mavpackettype": "POWER_STATUS",
        "Vcc": 5000,
        "Vservo": 0,
        "flags": 0,
        "_ts": 1764624569.8302035
      },
      "MEMINFO": {
        "mavpackettype": "MEMINFO",
        "brkval": 0,
        "freemem": 34816,
        "freemem32": 34816,
        "_ts": 1764624569.8302035
      },
      "NAV_CONTROLLER_OUTPUT": {
        "mavpackettype": "NAV_CONTROLLER_OUTPUT",
        "nav_roll": 0.0,
        "nav_pitch": 0.0,
        "nav_bearing": -31,
        "target_bearing": 0,
        "wp_dist": 0,
        "alt_error": 0.0,
        "aspd_error": 0.0,
        "xtrack_error": 0.0,
        "_ts": 1764624569.8302035
      },
      "MISSION_CURRENT": {
        "mavpackettype": "MISSION_CURRENT",
        "seq": 0,
        "total": 0,
        "mission_state": 1,
        "mission_mode": 0,
        "_ts": 1764624569.8302035
      },
      "GPS_RAW_INT": {
        "mavpackettype": "GPS_RAW_INT",
        "time_usec": 0,
        "fix_type": 0,
        "lat": 0,
        "lon": 0,
        "alt": 0,
        "eph": 65535,
        "epv": 65535,
        "vel": 0,
        "cog": 0,
        "satellites_visible": 0,
        "alt_ellipsoid": 0,
        "h_acc": 0,
        "v_acc": 0,
        "vel_acc": 0,
        "hdg_acc": 0,
        "yaw": 0,
        "_ts": 1764624569.8302035
      },
      "HEARTBEAT": {
        "mavpackettype": "HEARTBEAT",
        "type": 2,
        "autopilot": 3,
        "base_mode": 81,
        "custom_mode": 0,
        "system_status": 3,
        "mavlink_version": 3,
        "_ts": 1764624570.035235
      },
      "TIMESYNC": {
        "mavpackettype": "TIMESYNC",
        "tc1": 0,
        "ts1": 20022132001,
        "_ts": 1764624569.118461
      }
    }
  },
  {
    "_ts": 1764624570.2686963,
    "state": {
      "RAW_IMU": {
        "mavpackettype": "RAW_IMU",
        "time_usec": 21089994,
        "xacc": 259,
        "yacc": -870,
        "zacc": -433,
        "xgyro": -1503,
        "ygyro": 2080,
        "zgyro": -2365,
        "xmag": 0,
        "ymag": 0,
        "zmag": 0,
        "id": 0,
        "temperature": 3038,
        "_ts": 1764624570.2432053
      },
      "AHRS": {
        "mavpackettype": "AHRS",
        "omegaIx": -0.0024985282216221094,
        "omegaIy": 3.191463838447817e-05,
        "omegaIz": -0.002259381115436554,
        "accel_weight": 0.0,
        "renorm_val": 0.0,
        "error_rp": 0.02832936681807041,
        "error_yaw": 1.0,
        "_ts": 1764624570.2432053
      },
      "AHRS2": {
        "mavpackettype": "AHRS2",
        "roll": 1.0610723495483398,
        "pitch": 0.35981324315071106,
        "yaw": -0.3729891777038574,
        "altitude": 0.14000000059604645,
        "lat": 0,
        "lng": 0,
        "_ts": 1764624570.2432053
      },
      "ATTITUDE": {
        "mavpackettype": "ATTITUDE",
        "time_boot_ms": 21089,
        "roll": 1.1272246837615967,
        "pitch": 0.36539509892463684,
        "yaw": -0.3494150638580322,
        "rollspeed": -1.5058006048202515,
        "pitchspeed": 2.080307960510254,
        "yawspeed": -2.3674187660217285,
        "_ts": 1764624570.2432053
      },
      "VFR_HUD": {
        "mavpackettype": "VFR_HUD",
        "airspeed": 0.0,
        "groundspeed": 0.38537293672561646,
        "heading": 335,
        "throttle": 0,
        "alt": 0.17999999225139618,
        "climb": -0.04429754987359047,
        "_ts": 1764624570.1400237
      },
      "SCALED_PRESSURE": {
        "mavpackettype": "SCALED_PRESSURE",
        "time_boot_ms": 21098,
        "press_abs": 996.5458374023438,
        "press_diff": 0.0,
        "temperature": 2968,
        "temperature_press_diff": 0,
        "_ts": 1764624570.2432053
      },
      "SYSTEM_TIME": {
        "mavpackettype": "SYSTEM_TIME",
        "time_unix_usec": 0,
        "time_boot_ms": 20778,
        "_ts": 1764624569.8302035
      },
      "RANGEFINDER": {
        "mavpackettype": "RANGEFINDER",
        "distance": 0.24700000882148743,
        "voltage": 0.0,
        "_ts": 1764624569.9341168
      },
      "DISTANCE_SENSOR": {
        "mavpackettype": "DISTANCE_SENSOR",
        "time_boot_ms": 20782,
        "min_distance": 20,
        "max_distance": 300,
        "current_distance": 24,
        "type": 0,
        "id": 0,
        "orientation": 25,
        "covariance": 0,
        "horizontal_fov": 0.0,
        "vertical_fov": 0.0,
        "quaternion": [
          0.0,
          0.0,
          0.0,
          0.0
        ],
        "signal_quality": 0,
        "_ts": 1764624569.9341168
      },
      "EKF_STATUS_REPORT": {
        "mavpackettype": "EKF_STATUS_REPORT",
        "flags": 167,
        "velocity_variance": 0.0,
        "pos_horiz_variance": 0.017319774255156517,
        "pos_vert_variance": 0.023749686777591705,
        "compass_variance": 0.0,
        "terrain_alt_variance": 0.0,
        "airspeed_variance": 0.0,
        "_ts": 1764624569.9341168
      },
      "VIBRATION": {
        "mavpackettype": "VIBRATION",
        "time_usec": 20796170,
        "vibration_x": 0.15991199016571045,
        "vibration_y": 0.27125200629234314,
        "vibration_z": 0.28153926134109497,
        "clipping_0": 0,
        "clipping_1": 0,
        "clipping_2": 0,
        "_ts": 1764624569.9341168
      },
      "BATTERY_STATUS": {
        "mavpackettype": "BATTERY_STATUS",
        "id": 0,
        "battery_function": 0,
        "type": 0,
        "temperature": 32767,
        "voltages": [
          4072,
          65535,
          65535,
          65535,
          65535,
          65535,
          65535,
          65535,
          65535,
          65535
        ],
        "current_battery": 15,
        "current_consumed": 0,
        "energy_consumed": -1,
        "battery_remaining": 99,
        "time_remaining": 0,
        "charge_state": 1,
        "voltages_ext": [
          0,
          0,
          0,
          0
        ],
        "mode": 0,
        "fault_bitmask": 0,
        "_ts": 1764624569.9341168
      },
      "GLOBAL_POSITION_INT": {
        "mavpackettype": "GLOBAL_POSITION_INT",
        "time_boot_ms": 21018,
        "lat": 0,
        "lon": 0,
        "alt": 180,
        "relative_alt": 146,
        "vx": 19,
        "vy": 33,
        "vz": 4,
        "hdg": 33521,
        "_ts": 1764624570.1400237
      },
      "SERVO_OUTPUT_RAW": {
        "mavpackettype": "SERVO_OUTPUT_RAW",
        "time_usec": 21031372,
        "port": 0,
        "servo1_raw": 1000,
        "servo2_raw": 1000,
        "servo3_raw": 1000,
        "servo4_raw": 1000,
        "servo5_raw": 0,
        "servo6_raw": 0,
        "servo7_raw": 0,
        "servo8_raw": 0,
        "servo9_raw": 0,
        "servo10_raw": 0,
        "servo11_raw": 0,
        "servo12_raw": 0,
        "servo13_raw": 0,
        "servo14_raw": 0,
        "servo15_raw": 0,
        "servo16_raw": 0,
        "_ts": 1764624570.1400237
      },
      "RC_CHANNELS": {
        "mavpackettype": "RC_CHANNELS",
        "time_boot_ms": 21031,
        "chancount": 0,
        "chan1_raw": 0,
        "chan2_raw": 0,
        "chan3_raw": 0,
        "chan4_raw": 0,
        "chan5_raw": 0,
        "chan6_raw": 0,
        "chan7_raw": 0,
        "chan8_raw": 0,
        "chan9_raw": 0,
        "chan10_raw": 0,
        "chan11_raw": 0,
        "chan12_raw": 0,
        "chan13_raw": 0,
        "chan14_raw": 0,
        "chan15_raw": 0,
        "chan16_raw": 0,
        "chan17_raw": 0,
        "chan18_raw": 0,
        "rssi": 255,
        "_ts": 1764624570.1400237
      },
      "SYS_STATUS": {
        "mavpackettype": "SYS_STATUS",
        "onboard_control_sensors_present": 1394670859,
        "onboard_control_sensors_enabled": 1124113675,
        "onboard_control_sensors_health": 1174445067,
        "load": 660,
        "voltage_battery": 4072,
        "current_battery": 15,
        "battery_remaining": 99,
        "drop_rate_comm": 0,
        "errors_comm": 0,
        "errors_count1": 0,
        "errors_count2": 0,
        "errors_count3": 0,
        "errors_count4": 0,
        "_ts": 1764624570.2432053
      },
      "POWER_STATUS": {
        "mavpackettype": "POWER_STATUS",
        "Vcc": 5000,
        "Vservo": 0,
        "flags": 0,
        "_ts": 1764624570.2432053
      },
      "MEMINFO": {
        "mavpackettype": "MEMINFO",
        "brkval": 0,
        "freemem": 34816,
        "freemem32": 34816,
        "_ts": 1764624570.2432053
      },
      "NAV_CONTROLLER_OUTPUT": {
        "mavpackettype": "NAV_CONTROLLER_OUTPUT",
        "nav_roll": 0.0,
        "nav_pitch": 0.0,
        "nav_bearing": -31,
        "target_bearing": 0,
        "wp_dist": 0,
        "alt_error": 0.0,
        "aspd_error": 0.0,
        "xtrack_error": 0.0,
        "_ts": 1764624569.8302035
      },
      "MISSION_CURRENT": {
        "mavpackettype": "MISSION_CURRENT",
        "seq": 0,
        "total": 0,
        "mission_state": 1,
        "mission_mode": 0,
        "_ts": 1764624569.8302035
      },
      "GPS_RAW_INT": {
        "mavpackettype": "GPS_RAW_INT",
        "time_usec": 0,
        "fix_type": 0,
        "lat": 0,
        "lon": 0,
        "alt": 0,
        "eph": 65535,
        "epv": 65535,
        "vel": 0,
        "cog": 0,
        "satellites_visible": 0,
        "alt_ellipsoid": 0,
        "h_acc": 0,
        "v_acc": 0,
        "vel_acc": 0,
        "hdg_acc": 0,
        "yaw": 0,
        "_ts": 1764624569.8302035
      },
      "HEARTBEAT": {
        "mavpackettype": "HEARTBEAT",
        "type": 2,
        "autopilot": 3,
        "base_mode": 81,
        "custom_mode": 0,
        "system_status": 3,
        "mavlink_version": 3,
        "_ts": 1764624570.035235
      },
      "TIMESYNC": {
        "mavpackettype": "TIMESYNC",
        "tc1": 0,
        "ts1": 20022132001,
        "_ts": 1764624569.118461
      }
    }
  },
  {
    "_ts": 1764624570.3006356,
    "state": {
      "RAW_IMU": {
        "mavpackettype": "RAW_IMU",
        "time_usec": 21089994,
        "xacc": 259,
        "yacc": -870,
        "zacc": -433,
        "xgyro": -1503,
        "ygyro": 2080,
        "zgyro": -2365,
        "xmag": 0,
        "ymag": 0,
        "zmag": 0,
        "id": 0,
        "temperature": 3038,
        "_ts": 1764624570.2432053
      },
      "AHRS": {
        "mavpackettype": "AHRS",
        "omegaIx": -0.0024985282216221094,
        "omegaIy": 3.191463838447817e-05,
        "omegaIz": -0.002259381115436554,
        "accel_weight": 0.0,
        "renorm_val": 0.0,
        "error_rp": 0.02832936681807041,
        "error_yaw": 1.0,
        "_ts": 1764624570.2432053
      },
      "AHRS2": {
        "mavpackettype": "AHRS2",
        "roll": 1.0610723495483398,
        "pitch": 0.35981324315071106,
        "yaw": -0.3729891777038574,
        "altitude": 0.14000000059604645,
        "lat": 0,
        "lng": 0,
        "_ts": 1764624570.2432053
      },
      "ATTITUDE": {
        "mavpackettype": "ATTITUDE",
        "time_boot_ms": 21089,
        "roll": 1.1272246837615967,
        "pitch": 0.36539509892463684,
        "yaw": -0.3494150638580322,
        "rollspeed": -1.5058006048202515,
        "pitchspeed": 2.080307960510254,
        "yawspeed": -2.3674187660217285,
        "_ts": 1764624570.2432053
      },
      "VFR_HUD": {
        "mavpackettype": "VFR_HUD",
        "airspeed": 0.0,
        "groundspeed": 0.38537293672561646,
        "heading": 335,
        "throttle": 0,
        "alt": 0.17999999225139618,
        "climb": -0.04429754987359047,
        "_ts": 1764624570.1400237
      },
      "SCALED_PRESSURE": {
        "mavpackettype": "SCALED_PRESSURE",
        "time_boot_ms": 21098,
        "press_abs": 996.5458374023438,
        "press_diff": 0.0,
        "temperature": 2968,
        "temperature_press_diff": 0,
        "_ts": 1764624570.2432053
      },
      "SYSTEM_TIME": {
        "mavpackettype": "SYSTEM_TIME",
        "time_unix_usec": 0,
        "time_boot_ms": 20778,
        "_ts": 1764624569.8302035
      },
      "RANGEFINDER": {
        "mavpackettype": "RANGEFINDER",
        "distance": 0.24700000882148743,
        "voltage": 0.0,
        "_ts": 1764624569.9341168
      },
      "DISTANCE_SENSOR": {
        "mavpackettype": "DISTANCE_SENSOR",
        "time_boot_ms": 20782,
        "min_distance": 20,
        "max_distance": 300,
        "current_distance": 24,
        "type": 0,
        "id": 0,
        "orientation": 25,
        "covariance": 0,
        "horizontal_fov": 0.0,
        "vertical_fov": 0.0,
        "quaternion": [
          0.0,
          0.0,
          0.0,
          0.0
        ],
        "signal_quality": 0,
        "_ts": 1764624569.9341168
      },
      "EKF_STATUS_REPORT": {
        "mavpackettype": "EKF_STATUS_REPORT",
        "flags": 167,
        "velocity_variance": 0.0,
        "pos_horiz_variance": 0.017319774255156517,
        "pos_vert_variance": 0.023749686777591705,
        "compass_variance": 0.0,
        "terrain_alt_variance": 0.0,
        "airspeed_variance": 0.0,
        "_ts": 1764624569.9341168
      },
      "VIBRATION": {
        "mavpackettype": "VIBRATION",
        "time_usec": 20796170,
        "vibration_x": 0.15991199016571045,
        "vibration_y": 0.27125200629234314,
        "vibration_z": 0.28153926134109497,
        "clipping_0": 0,
        "clipping_1": 0,
        "clipping_2": 0,
        "_ts": 1764624569.9341168
      },
      "BATTERY_STATUS": {
        "mavpackettype": "BATTERY_STATUS",
        "id": 0,
        "battery_function": 0,
        "type": 0,
        "temperature": 32767,
        "voltages": [
          4072,
          65535,
          65535,
          65535,
          65535,
          65535,
          65535,
          65535,
          65535,
          65535
        ],
        "current_battery": 15,
        "current_consumed": 0,
        "energy_consumed": -1,
        "battery_remaining": 99,
        "time_remaining": 0,
        "charge_state": 1,
        "voltages_ext": [
          0,
          0,
          0,
          0
        ],
        "mode": 0,
        "fault_bitmask": 0,
        "_ts": 1764624569.9341168
      },
      "GLOBAL_POSITION_INT": {
        "mavpackettype": "GLOBAL_POSITION_INT",
        "time_boot_ms": 21018,
        "lat": 0,
        "lon": 0,
        "alt": 180,
        "relative_alt": 146,
        "vx": 19,
        "vy": 33,
        "vz": 4,
        "hdg": 33521,
        "_ts": 1764624570.1400237
      },
      "SERVO_OUTPUT_RAW": {
        "mavpackettype": "SERVO_OUTPUT_RAW",
        "time_usec": 21031372,
        "port": 0,
        "servo1_raw": 1000,
        "servo2_raw": 1000,
        "servo3_raw": 1000,
        "servo4_raw": 1000,
        "servo5_raw": 0,
        "servo6_raw": 0,
        "servo7_raw": 0,
        "servo8_raw": 0,
        "servo9_raw": 0,
        "servo10_raw": 0,
        "servo11_raw": 0,
        "servo12_raw": 0,
        "servo13_raw": 0,
        "servo14_raw": 0,
        "servo15_raw": 0,
        "servo16_raw": 0,
        "_ts": 1764624570.1400237
      },
      "RC_CHANNELS": {
        "mavpackettype": "RC_CHANNELS",
        "time_boot_ms": 21031,
        "chancount": 0,
        "chan1_raw": 0,
        "chan2_raw": 0,
        "chan3_raw": 0,
        "chan4_raw": 0,
        "chan5_raw": 0,
        "chan6_raw": 0,
        "chan7_raw": 0,
        "chan8_raw": 0,
        "chan9_raw": 0,
        "chan10_raw": 0,
        "chan11_raw": 0,
        "chan12_raw": 0,
        "chan13_raw": 0,
        "chan14_raw": 0,
        "chan15_raw": 0,
        "chan16_raw": 0,
        "chan17_raw": 0,
        "chan18_raw": 0,
        "rssi": 255,
        "_ts": 1764624570.1400237
      },
      "SYS_STATUS": {
        "mavpackettype": "SYS_STATUS",
        "onboard_control_sensors_present": 1394670859,
        "onboard_control_sensors_enabled": 1124113675,
        "onboard_control_sensors_health": 1174445067,
        "load": 660,
        "voltage_battery": 4072,
        "current_battery": 15,
        "battery_remaining": 99,
        "drop_rate_comm": 0,
        "errors_comm": 0,
        "errors_count1": 0,
        "errors_count2": 0,
        "errors_count3": 0,
        "errors_count4": 0,
        "_ts": 1764624570.2432053
      },
      "POWER_STATUS": {
        "mavpackettype": "POWER_STATUS",
        "Vcc": 5000,
        "Vservo": 0,
        "flags": 0,
        "_ts": 1764624570.2432053
      },
      "MEMINFO": {
        "mavpackettype": "MEMINFO",
        "brkval": 0,
        "freemem": 34816,
        "freemem32": 34816,
        "_ts": 1764624570.2432053
      },
      "NAV_CONTROLLER_OUTPUT": {
        "mavpackettype": "NAV_CONTROLLER_OUTPUT",
        "nav_roll": 0.0,
        "nav_pitch": 0.0,
        "nav_bearing": -31,
        "target_bearing": 0,
        "wp_dist": 0,
        "alt_error": 0.0,
        "aspd_error": 0.0,
        "xtrack_error": 0.0,
        "_ts": 1764624569.8302035
      },
      "MISSION_CURRENT": {
        "mavpackettype": "MISSION_CURRENT",
        "seq": 0,
        "total": 0,
        "mission_state": 1,
        "mission_mode": 0,
        "_ts": 1764624569.8302035
      },
      "GPS_RAW_INT": {
        "mavpackettype": "GPS_RAW_INT",
        "time_usec": 0,
        "fix_type": 0,
        "lat": 0,
        "lon": 0,
        "alt": 0,
        "eph": 65535,
        "epv": 65535,
        "vel": 0,
        "cog": 0,
        "satellites_visible": 0,
        "alt_ellipsoid": 0,
        "h_acc": 0,
        "v_acc": 0,
        "vel_acc": 0,
        "hdg_acc": 0,
        "yaw": 0,
        "_ts": 1764624569.8302035
      },
      "HEARTBEAT": {
        "mavpackettype": "HEARTBEAT",
        "type": 2,
        "autopilot": 3,
        "base_mode": 81,
        "custom_mode": 0,
        "system_status": 3,
        "mavlink_version": 3,
        "_ts": 1764624570.035235
      },
      "TIMESYNC": {
        "mavpackettype": "TIMESYNC",
        "tc1": 0,
        "ts1": 20022132001,
        "_ts": 1764624569.118461
      }
    }
  },
  {
    "_ts": 1764624570.3319497,
    "state": {
      "RAW_IMU": {
        "mavpackettype": "RAW_IMU",
        "time_usec": 21089994,
        "xacc": 259,
        "yacc": -870,
        "zacc": -433,
        "xgyro": -1503,
        "ygyro": 2080,
        "zgyro": -2365,
        "xmag": 0,
        "ymag": 0,
        "zmag": 0,
        "id": 0,
        "temperature": 3038,
        "_ts": 1764624570.2432053
      },
      "AHRS": {
        "mavpackettype": "AHRS",
        "omegaIx": -0.0024985282216221094,
        "omegaIy": 3.191463838447817e-05,
        "omegaIz": -0.002259381115436554,
        "accel_weight": 0.0,
        "renorm_val": 0.0,
        "error_rp": 0.02832936681807041,
        "error_yaw": 1.0,
        "_ts": 1764624570.2432053
      },
      "AHRS2": {
        "mavpackettype": "AHRS2",
        "roll": 1.0610723495483398,
        "pitch": 0.35981324315071106,
        "yaw": -0.3729891777038574,
        "altitude": 0.14000000059604645,
        "lat": 0,
        "lng": 0,
        "_ts": 1764624570.2432053
      },
      "ATTITUDE": {
        "mavpackettype": "ATTITUDE",
        "time_boot_ms": 21089,
        "roll": 1.1272246837615967,
        "pitch": 0.36539509892463684,
        "yaw": -0.3494150638580322,
        "rollspeed": -1.5058006048202515,
        "pitchspeed": 2.080307960510254,
        "yawspeed": -2.3674187660217285,
        "_ts": 1764624570.2432053
      },
      "VFR_HUD": {
        "mavpackettype": "VFR_HUD",
        "airspeed": 0.0,
        "groundspeed": 0.38537293672561646,
        "heading": 335,
        "throttle": 0,
        "alt": 0.17999999225139618,
        "climb": -0.04429754987359047,
        "_ts": 1764624570.1400237
      },
      "SCALED_PRESSURE": {
        "mavpackettype": "SCALED_PRESSURE",
        "time_boot_ms": 21098,
        "press_abs": 996.5458374023438,
        "press_diff": 0.0,
        "temperature": 2968,
        "temperature_press_diff": 0,
        "_ts": 1764624570.2432053
      },
      "SYSTEM_TIME": {
        "mavpackettype": "SYSTEM_TIME",
        "time_unix_usec": 0,
        "time_boot_ms": 20778,
        "_ts": 1764624569.8302035
      },
      "RANGEFINDER": {
        "mavpackettype": "RANGEFINDER",
        "distance": 0.24700000882148743,
        "voltage": 0.0,
        "_ts": 1764624569.9341168
      },
      "DISTANCE_SENSOR": {
        "mavpackettype": "DISTANCE_SENSOR",
        "time_boot_ms": 20782,
        "min_distance": 20,
        "max_distance": 300,
        "current_distance": 24,
        "type": 0,
        "id": 0,
        "orientation": 25,
        "covariance": 0,
        "horizontal_fov": 0.0,
        "vertical_fov": 0.0,
        "quaternion": [
          0.0,
          0.0,
          0.0,
          0.0
        ],
        "signal_quality": 0,
        "_ts": 1764624569.9341168
      },
      "EKF_STATUS_REPORT": {
        "mavpackettype": "EKF_STATUS_REPORT",
        "flags": 167,
        "velocity_variance": 0.0,
        "pos_horiz_variance": 0.017319774255156517,
        "pos_vert_variance": 0.023749686777591705,
        "compass_variance": 0.0,
        "terrain_alt_variance": 0.0,
        "airspeed_variance": 0.0,
        "_ts": 1764624569.9341168
      },
      "VIBRATION": {
        "mavpackettype": "VIBRATION",
        "time_usec": 20796170,
        "vibration_x": 0.15991199016571045,
        "vibration_y": 0.27125200629234314,
        "vibration_z": 0.28153926134109497,
        "clipping_0": 0,
        "clipping_1": 0,
        "clipping_2": 0,
        "_ts": 1764624569.9341168
      },
      "BATTERY_STATUS": {
        "mavpackettype": "BATTERY_STATUS",
        "id": 0,
        "battery_function": 0,
        "type": 0,
        "temperature": 32767,
        "voltages": [
          4072,
          65535,
          65535,
          65535,
          65535,
          65535,
          65535,
          65535,
          65535,
          65535
        ],
        "current_battery": 15,
        "current_consumed": 0,
        "energy_consumed": -1,
        "battery_remaining": 99,
        "time_remaining": 0,
        "charge_state": 1,
        "voltages_ext": [
          0,
          0,
          0,
          0
        ],
        "mode": 0,
        "fault_bitmask": 0,
        "_ts": 1764624569.9341168
      },
      "GLOBAL_POSITION_INT": {
        "mavpackettype": "GLOBAL_POSITION_INT",
        "time_boot_ms": 21018,
        "lat": 0,
        "lon": 0,
        "alt": 180,
        "relative_alt": 146,
        "vx": 19,
        "vy": 33,
        "vz": 4,
        "hdg": 33521,
        "_ts": 1764624570.1400237
      },
      "SERVO_OUTPUT_RAW": {
        "mavpackettype": "SERVO_OUTPUT_RAW",
        "time_usec": 21031372,
        "port": 0,
        "servo1_raw": 1000,
        "servo2_raw": 1000,
        "servo3_raw": 1000,
        "servo4_raw": 1000,
        "servo5_raw": 0,
        "servo6_raw": 0,
        "servo7_raw": 0,
        "servo8_raw": 0,
        "servo9_raw": 0,
        "servo10_raw": 0,
        "servo11_raw": 0,
        "servo12_raw": 0,
        "servo13_raw": 0,
        "servo14_raw": 0,
        "servo15_raw": 0,
        "servo16_raw": 0,
        "_ts": 1764624570.1400237
      },
      "RC_CHANNELS": {
        "mavpackettype": "RC_CHANNELS",
        "time_boot_ms": 21031,
        "chancount": 0,
        "chan1_raw": 0,
        "chan2_raw": 0,
        "chan3_raw": 0,
        "chan4_raw": 0,
        "chan5_raw": 0,
        "chan6_raw": 0,
        "chan7_raw": 0,
        "chan8_raw": 0,
        "chan9_raw": 0,
        "chan10_raw": 0,
        "chan11_raw": 0,
        "chan12_raw": 0,
        "chan13_raw": 0,
        "chan14_raw": 0,
        "chan15_raw": 0,
        "chan16_raw": 0,
        "chan17_raw": 0,
        "chan18_raw": 0,
        "rssi": 255,
        "_ts": 1764624570.1400237
      },
      "SYS_STATUS": {
        "mavpackettype": "SYS_STATUS",
        "onboard_control_sensors_present": 1394670859,
        "onboard_control_sensors_enabled": 1124113675,
        "onboard_control_sensors_health": 1174445067,
        "load": 660,
        "voltage_battery": 4072,
        "current_battery": 15,
        "battery_remaining": 99,
        "drop_rate_comm": 0,
        "errors_comm": 0,
        "errors_count1": 0,
        "errors_count2": 0,
        "errors_count3": 0,
        "errors_count4": 0,
        "_ts": 1764624570.2432053
      },
      "POWER_STATUS": {
        "mavpackettype": "POWER_STATUS",
        "Vcc": 5000,
        "Vservo": 0,
        "flags": 0,
        "_ts": 1764624570.2432053
      },
      "MEMINFO": {
        "mavpackettype": "MEMINFO",
        "brkval": 0,
        "freemem": 34816,
        "freemem32": 34816,
        "_ts": 1764624570.2432053
      },
      "NAV_CONTROLLER_OUTPUT": {
        "mavpackettype": "NAV_CONTROLLER_OUTPUT",
        "nav_roll": 0.0,
        "nav_pitch": 0.0,
        "nav_bearing": -31,
        "target_bearing": 0,
        "wp_dist": 0,
        "alt_error": 0.0,
        "aspd_error": 0.0,
        "xtrack_error": 0.0,
        "_ts": 1764624569.8302035
      },
      "MISSION_CURRENT": {
        "mavpackettype": "MISSION_CURRENT",
        "seq": 0,
        "total": 0,
        "mission_state": 1,
        "mission_mode": 0,
        "_ts": 1764624569.8302035
      },
      "GPS_RAW_INT": {
        "mavpackettype": "GPS_RAW_INT",
        "time_usec": 0,
        "fix_type": 0,
        "lat": 0,
        "lon": 0,
        "alt": 0,
        "eph": 65535,
        "epv": 65535,
        "vel": 0,
        "cog": 0,
        "satellites_visible": 0,
        "alt_ellipsoid": 0,
        "h_acc": 0,
        "v_acc": 0,
        "vel_acc": 0,
        "hdg_acc": 0,
        "yaw": 0,
        "_ts": 1764624569.8302035
      },
      "HEARTBEAT": {
        "mavpackettype": "HEARTBEAT",
        "type": 2,
        "autopilot": 3,
        "base_mode": 81,
        "custom_mode": 0,
        "system_status": 3,
        "mavlink_version": 3,
        "_ts": 1764624570.035235
      },
      "TIMESYNC": {
        "mavpackettype": "TIMESYNC",
        "tc1": 0,
        "ts1": 20022132001,
        "_ts": 1764624569.118461
      }
    }
  },
  {
    "_ts": 1764624570.3629506,
    "state": {
      "RAW_IMU": {
        "mavpackettype": "RAW_IMU",
        "time_usec": 21089994,
        "xacc": 259,
        "yacc": -870,
        "zacc": -433,
        "xgyro": -1503,
        "ygyro": 2080,
        "zgyro": -2365,
        "xmag": 0,
        "ymag": 0,
        "zmag": 0,
        "id": 0,
        "temperature": 3038,
        "_ts": 1764624570.2432053
      },
      "AHRS": {
        "mavpackettype": "AHRS",
        "omegaIx": -0.0024985282216221094,
        "omegaIy": 3.191463838447817e-05,
        "omegaIz": -0.002259381115436554,
        "accel_weight": 0.0,
        "renorm_val": 0.0,
        "error_rp": 0.02832936681807041,
        "error_yaw": 1.0,
        "_ts": 1764624570.2432053
      },
      "AHRS2": {
        "mavpackettype": "AHRS2",
        "roll": 0.7158380746841431,
        "pitch": 0.7550118565559387,
        "yaw": -0.3499855697154999,
        "altitude": 0.12999999523162842,
        "lat": 0,
        "lng": 0,
        "_ts": 1764624570.3451462
      },
      "ATTITUDE": {
        "mavpackettype": "ATTITUDE",
        "time_boot_ms": 21089,
        "roll": 1.1272246837615967,
        "pitch": 0.36539509892463684,
        "yaw": -0.3494150638580322,
        "rollspeed": -1.5058006048202515,
        "pitchspeed": 2.080307960510254,
        "yawspeed": -2.3674187660217285,
        "_ts": 1764624570.2432053
      },
      "VFR_HUD": {
        "mavpackettype": "VFR_HUD",
        "airspeed": 0.0,
        "groundspeed": 0.38537293672561646,
        "heading": 335,
        "throttle": 0,
        "alt": 0.17999999225139618,
        "climb": -0.04429754987359047,
        "_ts": 1764624570.1400237
      },
      "SCALED_PRESSURE": {
        "mavpackettype": "SCALED_PRESSURE",
        "time_boot_ms": 21098,
        "press_abs": 996.5458374023438,
        "press_diff": 0.0,
        "temperature": 2968,
        "temperature_press_diff": 0,
        "_ts": 1764624570.2432053
      },
      "SYSTEM_TIME": {
        "mavpackettype": "SYSTEM_TIME",
        "time_unix_usec": 0,
        "time_boot_ms": 21185,
        "_ts": 1764624570.3451462
      },
      "RANGEFINDER": {
        "mavpackettype": "RANGEFINDER",
        "distance": 0.24700000882148743,
        "voltage": 0.0,
        "_ts": 1764624570.3451462
      },
      "DISTANCE_SENSOR": {
        "mavpackettype": "DISTANCE_SENSOR",
        "time_boot_ms": 20782,
        "min_distance": 20,
        "max_distance": 300,
        "current_distance": 24,
        "type": 0,
        "id": 0,
        "orientation": 25,
        "covariance": 0,
        "horizontal_fov": 0.0,
        "vertical_fov": 0.0,
        "quaternion": [
          0.0,
          0.0,
          0.0,
          0.0
        ],
        "signal_quality": 0,
        "_ts": 1764624569.9341168
      },
      "EKF_STATUS_REPORT": {
        "mavpackettype": "EKF_STATUS_REPORT",
        "flags": 167,
        "velocity_variance": 0.0,
        "pos_horiz_variance": 0.03032800182700157,
        "pos_vert_variance": 0.01660127192735672,
        "compass_variance": 0.0,
        "terrain_alt_variance": 0.0,
        "airspeed_variance": 0.0,
        "_ts": 1764624570.3451462
      },
      "VIBRATION": {
        "mavpackettype": "VIBRATION",
        "time_usec": 21198895,
        "vibration_x": 0.7146463394165039,
        "vibration_y": 0.3775579631328583,
        "vibration_z": 0.2709695100784302,
        "clipping_0": 0,
        "clipping_1": 0,
        "clipping_2": 0,
        "_ts": 1764624570.3451462
      },
      "BATTERY_STATUS": {
        "mavpackettype": "BATTERY_STATUS",
        "id": 0,
        "battery_function": 0,
        "type": 0,
        "temperature": 32767,
        "voltages": [
          4072,
          65535,
          65535,
          65535,
          65535,
          65535,
          65535,
          65535,
          65535,
          65535
        ],
        "current_battery": 15,
        "current_consumed": 0,
        "energy_consumed": -1,
        "battery_remaining": 99,
        "time_remaining": 0,
        "charge_state": 1,
        "voltages_ext": [
          0,
          0,
          0,
          0
        ],
        "mode": 0,
        "fault_bitmask": 0,
        "_ts": 1764624570.3451462
      },
      "GLOBAL_POSITION_INT": {
        "mavpackettype": "GLOBAL_POSITION_INT",
        "time_boot_ms": 21018,
        "lat": 0,
        "lon": 0,
        "alt": 180,
        "relative_alt": 146,
        "vx": 19,
        "vy": 33,
        "vz": 4,
        "hdg": 33521,
        "_ts": 1764624570.1400237
      },
      "SERVO_OUTPUT_RAW": {
        "mavpackettype": "SERVO_OUTPUT_RAW",
        "time_usec": 21031372,
        "port": 0,
        "servo1_raw": 1000,
        "servo2_raw": 1000,
        "servo3_raw": 1000,
        "servo4_raw": 1000,
        "servo5_raw": 0,
        "servo6_raw": 0,
        "servo7_raw": 0,
        "servo8_raw": 0,
        "servo9_raw": 0,
        "servo10_raw": 0,
        "servo11_raw": 0,
        "servo12_raw": 0,
        "servo13_raw": 0,
        "servo14_raw": 0,
        "servo15_raw": 0,
        "servo16_raw": 0,
        "_ts": 1764624570.1400237
      },
      "RC_CHANNELS": {
        "mavpackettype": "RC_CHANNELS",
        "time_boot_ms": 21031,
        "chancount": 0,
        "chan1_raw": 0,
        "chan2_raw": 0,
        "chan3_raw": 0,
        "chan4_raw": 0,
        "chan5_raw": 0,
        "chan6_raw": 0,
        "chan7_raw": 0,
        "chan8_raw": 0,
        "chan9_raw": 0,
        "chan10_raw": 0,
        "chan11_raw": 0,
        "chan12_raw": 0,
        "chan13_raw": 0,
        "chan14_raw": 0,
        "chan15_raw": 0,
        "chan16_raw": 0,
        "chan17_raw": 0,
        "chan18_raw": 0,
        "rssi": 255,
        "_ts": 1764624570.1400237
      },
      "SYS_STATUS": {
        "mavpackettype": "SYS_STATUS",
        "onboard_control_sensors_present": 1394670859,
        "onboard_control_sensors_enabled": 1124113675,
        "onboard_control_sensors_health": 1174445067,
        "load": 660,
        "voltage_battery": 4072,
        "current_battery": 15,
        "battery_remaining": 99,
        "drop_rate_comm": 0,
        "errors_comm": 0,
        "errors_count1": 0,
        "errors_count2": 0,
        "errors_count3": 0,
        "errors_count4": 0,
        "_ts": 1764624570.2432053
      },
      "POWER_STATUS": {
        "mavpackettype": "POWER_STATUS",
        "Vcc": 5000,
        "Vservo": 0,
        "flags": 0,
        "_ts": 1764624570.2432053
      },
      "MEMINFO": {
        "mavpackettype": "MEMINFO",
        "brkval": 0,
        "freemem": 34816,
        "freemem32": 34816,
        "_ts": 1764624570.2432053
      },
      "NAV_CONTROLLER_OUTPUT": {
        "mavpackettype": "NAV_CONTROLLER_OUTPUT",
        "nav_roll": 0.0,
        "nav_pitch": 0.0,
        "nav_bearing": -17,
        "target_bearing": 0,
        "wp_dist": 0,
        "alt_error": 0.0,
        "aspd_error": 0.0,
        "xtrack_error": 0.0,
        "_ts": 1764624570.3451462
      },
      "MISSION_CURRENT": {
        "mavpackettype": "MISSION_CURRENT",
        "seq": 0,
        "total": 0,
        "mission_state": 1,
        "mission_mode": 0,
        "_ts": 1764624570.3451462
      },
      "GPS_RAW_INT": {
        "mavpackettype": "GPS_RAW_INT",
        "time_usec": 0,
        "fix_type": 0,
        "lat": 0,
        "lon": 0,
        "alt": 0,
        "eph": 65535,
        "epv": 65535,
        "vel": 0,
        "cog": 0,
        "satellites_visible": 0,
        "alt_ellipsoid": 0,
        "h_acc": 0,
        "v_acc": 0,
        "vel_acc": 0,
        "hdg_acc": 0,
        "yaw": 0,
        "_ts": 1764624570.3451462
      },
      "HEARTBEAT": {
        "mavpackettype": "HEARTBEAT",
        "type": 2,
        "autopilot": 3,
        "base_mode": 81,
        "custom_mode": 0,
        "system_status": 3,
        "mavlink_version": 3,
        "_ts": 1764624570.035235
      },
      "TIMESYNC": {
        "mavpackettype": "TIMESYNC",
        "tc1": 0,
        "ts1": 20022132001,
        "_ts": 1764624569.118461
      }
    }
  },
  {
    "_ts": 1764624570.3944337,
    "state": {
      "RAW_IMU": {
        "mavpackettype": "RAW_IMU",
        "time_usec": 21089994,
        "xacc": 259,
        "yacc": -870,
        "zacc": -433,
        "xgyro": -1503,
        "ygyro": 2080,
        "zgyro": -2365,
        "xmag": 0,
        "ymag": 0,
        "zmag": 0,
        "id": 0,
        "temperature": 3038,
        "_ts": 1764624570.2432053
      },
      "AHRS": {
        "mavpackettype": "AHRS",
        "omegaIx": -0.0024985282216221094,
        "omegaIy": 3.191463838447817e-05,
        "omegaIz": -0.002259381115436554,
        "accel_weight": 0.0,
        "renorm_val": 0.0,
        "error_rp": 0.02832936681807041,
        "error_yaw": 1.0,
        "_ts": 1764624570.2432053
      },
      "AHRS2": {
        "mavpackettype": "AHRS2",
        "roll": 0.7158380746841431,
        "pitch": 0.7550118565559387,
        "yaw": -0.3499855697154999,
        "altitude": 0.12999999523162842,
        "lat": 0,
        "lng": 0,
        "_ts": 1764624570.3451462
      },
      "ATTITUDE": {
        "mavpackettype": "ATTITUDE",
        "time_boot_ms": 21089,
        "roll": 1.1272246837615967,
        "pitch": 0.36539509892463684,
